{
  "places": [
    {
      "id": 1,
      "name": "Restaurante Bom Sabor",
      "address": "Rua das Flores, 123 - Centro",
      "city": "São Paulo",
      "state": "SP",
      "coordinates": {
        "lat": -23.5505,
        "lng": -46.6333
      },
      "category": "restaurante",
      "description": "Restaurante tradicional com pratos da culinária brasileira",
      "acceptsVale": true,
      "valeType": ["alimentação", "refeição"],
      "valeBrands": ["flash", "ifood beneficios", "sodexo"],
      "phone": "(11) 9999-9999",
      "hours": "Seg-Sex: 11h-22h, Sáb-Dom: 12h-23h"
    },
    {
      "id": 2,
      "name": "Padaria Doce Lar",
      "address": "Av. Paulista, 456 - Bela Vista",
      "city": "São Paulo",
      "state": "SP",
      "coordinates": {
        "lat": -23.5631,
        "lng": -46.6544
      },
      "category": "padaria",
      "description": "Padaria artesanal com pães frescos e doces caseiros",
      "acceptsVale": true,
      "valeType": ["alimentação"],
      "valeBrands": ["flash", "ifood beneficios", "sodexo"],
      "phone": "(11) 8888-8888",
      "hours": "Seg-Sáb: 6h-20h, Dom: 7h-18h"
    },
    {
      "id": 3,
      "name": "Supermercado Econômico",
      "address": "Rua Augusta, 789 - Consolação",
      "city": "São Paulo",
      "state": "SP",
      "coordinates": {
        "lat": -23.5489,
        "lng": -46.6388
      },
      "category": "supermercado",
      "description": "Supermercado com variedade de produtos e preços acessíveis",
      "acceptsVale": true,
      "valeType": ["alimentação"],
      "valeBrands": ["flash", "ifood beneficios", "sodexo"],
      "phone": "(11) 7777-7777",
      "hours": "Seg-Sáb: 7h-22h, Dom: 8h-20h"
    },
    {
      "id": 4,
      "name": "Café Aroma",
      "address": "Rua Oscar Freire, 321 - Jardins",
      "city": "São Paulo",
      "state": "SP",
      "coordinates": {
        "lat": -23.5671,
        "lng": -46.6734
      },
      "category": "café",
      "description": "Café especializado com ambiente aconchegante",
      "acceptsVale": true,
      "valeType": ["alimentação"],
      "valeBrands": ["flash", "ifood beneficios", "sodexo"],
      "phone": "(11) 6666-6666",
      "hours": "Seg-Sex: 7h-19h, Sáb-Dom: 8h-18h"
    },
    {
      "id": 5,
      "name": "Pizzaria Bella Napoli",
      "address": "Rua 13 de Maio, 654 - Bixiga",
      "city": "São Paulo",
      "state": "SP",
      "coordinates": {
        "lat": -23.5612,
        "lng": -46.6565
      },
      "category": "pizzaria",
      "description": "Pizzaria italiana autêntica com forno a lenha",
      "acceptsVale": true,
      "valeType": ["alimentação", "refeição"],
      "valeBrands": ["flash", "ifood beneficios", "sodexo"],
      "phone": "(11) 5555-5555",
      "hours": "Ter-Dom: 18h-23h"
    },
    {
      "id": 7,
      "name": "Mercado do Bairro",
      "address": "Av. Sérgio Henn, 1604",
      "city": "Santarém",
      "state": "PA",
      "coordinates": { "lat": -2.433748, "lng": -54.71967 },
      "category": "supermercado",
      "description": "Parque da Cidade",
      "acceptsVale": true,
      "valeType": ["refeição"],
      "valeBrands": ["flash"],
      "phone": "",
      "hours": ""
    },
    {
      "id": 8,
      "name": "Mercado do Bairro",
      "address": "Av. Mendonça Furtado, 2486 - Aldeia, Santarém - PA, 68040-050",
      "city": "Santarém",
      "state": "PA",
      "coordinates": { "lat": -2.4245881388235424, "lng": -54.72480658951951 },
      "category": "supermercado",
      "description": "Mercado do Bairro-Mendonça Furtado",
      "acceptsVale": true,
      "valeType": ["refeição"],
      "valeBrands": ["flash"],
      "phone": "",
      "hours": ""
    },
    {
      "id": 9,
      "name": "Avante",
      "address": "Tv. Assis de Vasconcelos, 1-165 - Aldeia, Santarém - PA, 68040-510",
      "city": "Santarém",
      "state": "PA",
      "valeType": ["refeição"],
      "description": "Avante Assis de Vasconcelos",
      "valeBrands": ["flash"],
      "coordinates": { "lat": -2.4283170207005447, "lng": -54.72376303118168 }
    },
    {
      "id": 10,
      "name": "Avante",
      "address": "Av. Moaçara - Diamantino, Santarém - PA, 68025-740",
      "city": "Santarém",
      "state": "PA",
      "coordinates": { "lat": -2.450639960628367, "lng": -54.70361751793176 },
      "category": "supermercado",
      "description": "Avante Moaçara",
      "acceptsVale": true,
      "valeType": ["refeição"],
      "valeBrands": ["flash"],
      "phone": "",
      "hours": ""
    },
    {
      "id": 11,
      "name": "Pizzaria Massabor",
      "address": "BR-163, 1450 - Caranazal, Santarém - PA, 68040-400",
      "city": "Santarém",
      "state": "PA",
      "coordinates": { "lat": -2.428783212710179, "lng": -54.7331464978685 },
      "category": "pizzaria",
      "description": "A pizzaria oferece pizzas de vários sabores, além de salgados e doces, em ambiente familiar e descontraído.",
      "acceptsVale": true,
      "valeType": ["refeição"],
      "valeBrands": ["flash"],
      "phone": "",
      "hours": "093991227116"
    },
    {
      "id": 12,
      "name": "Pão da Santa",
      "address": "R. Pres. Kenedy, 44 - Liberdade, Santarém - PA, 68040-170",
      "city": "Santarém",
      "state": "PA",
      "coordinates": { "lat": -2.4280664421487486, "lng": -54.74294015460663 },
      "category": "padaria",
      "valeType": ["refeição"],
      "valeBrands": ["flash"],
      "acceptsVale": true

    },
    {
      "id": 13,
      "name": "Gelateria Luci",
      "address": "R. Lameira Bittencourt, 69 - Centro, Santarém - PA, 68005-010",
      "city": "Santarém",
      "state": "PA",
      "coordinates": { "lat": -2.416197782400301, "lng": -54.711374818521655},
      "category": "sorveteria",
      "description": "Gelateria com sorvetes artesanais e doces.",
      "acceptsVale": true,
      "valeType": ["refeição"],
      "valeBrands": ["flash"],
      "phone": "",
      "hours": ""
    }
  ]
}
